[
  {
    "stableId": "22222222-2222-2222-2222-222222222222",
    "name": "Istanbul",
    "airportcode": "IST",
    "coordinates": [28.9784, 41.0082],
    "countryStableId": "11111111-1111-1111-1111-111111111111"
  },
  {
    "stableId": "33333333-3333-3333-3333-333333333333",
    "name": "Ankara",
    "airportcode": "ESB",
    "coordinates": [32.8597, 39.9334],
    "countryStableId": "11111111-1111-1111-1111-111111111111"
  },
  {
    "stableId": "44444444-4444-4444-4444-444444444444",
    "name": "Izmir",
    "airportcode": "ADB",
    "coordinates": [27.1428, 38.4237],
    "countryStableId": "11111111-1111-1111-1111-111111111111"
  },
  {
    "stableId": "55555555-5555-5555-5555-555555555555",
    "name": "Antalya",
    "airportcode": "AYT",
    "coordinates": [30.7133, 36.8969],
    "countryStableId": "11111111-1111-1111-1111-111111111111"
  },
  {
    "stableId": "66666666-6666-6666-6666-666666666666",
    "name": "Bursa",
    "airportcode": "BTZ",
    "coordinates": [29.0665, 40.1828],
    "countryStableId": "11111111-1111-1111-1111-111111111111"
  }
]
